site name,lat,long 
Temple of Divus Augustus ,40.926823,14.524545
Temple of Divus Augustus ,41.8916,12.4844
Temple of Roma and Augustus ,37.97162762,23.72730904
Temple of Roma and Augustus ,32.63957609,14.29485758
Roma et Augustus ,37.520416,30.138833
Temple of Augustus and Rome ,39.94421302,32.8582876
Temple of Augustus,41.3833618,2.177223
Temple of Augustus ,44.87018435,13.84183975
